{"type": "FeatureCollection", "features": [{"geometry": {"type": "Point", "coordinates": [-77.2344, 42.1014]}, "type": "Feature", "properties": {"state": "NY", "hcn": "USH00300023", "name": "ADDISON", "elev": 999.0, "ghcn": "USC00300023"}, "id": "USH00300023"}, {"geometry": {"type": "Point", "coordinates": [-73.8092, 42.7431]}, "type": "Feature", "properties": {"state": "NY", "hcn": "USH00300042", "name": "ALBANY INTL AP", "elev": 275.0, "ghcn": "USW00014735"}, "id": "USH00300042"}, {"geometry": {"type": "Point", "coordinates": [-77.785, 42.2614]}, "type": "Feature", "properties": {"state": "NY", "hcn": "USH00300085", "name": "ALFRED", "elev": 1770.0, "ghcn": "USC00300085"}, "id": "USH00300085"}, {"geometry": {"type": "Point", "coordinates": [-78.75, 42.1003]}, "type": "Feature", "properties": {"state": "NY", "hcn": "USH00300093", "name": "ALLEGANY SP", "elev": 1500.0, "ghcn": "USC00300093"}, "id": "USH00300093"}, {"geometry": {"type": "Point", "coordinates": [-77.9889, 42.3017]}, "type": "Feature", "properties": {"state": "NY", "hcn": "USH00300183", "name": "ANGELICA", "elev": 1445.0, "ghcn": "USC00300183"}, "id": "USH00300183"}, {"geometry": {"type": "Point", "coordinates": [-76.5447, 42.9328]}, "type": "Feature", "properties": {"state": "NY", "hcn": "USH00300321", "name": "AUBURN", "elev": 770.0, "ghcn": "USC00300321"}, "id": "USH00300321"}, {"geometry": {"type": "Point", "coordinates": [-78.1692, 43.0303]}, "type": "Feature", "properties": {"state": "NY", "hcn": "USH00300443", "name": "BATAVIA", "elev": 913.0, "ghcn": "USC00300443"}, "id": "USH00300443"}, {"geometry": {"type": "Point", "coordinates": [-75.98, 42.2067]}, "type": "Feature", "properties": {"state": "NY", "hcn": "USH00300687", "name": "BINGHAMTON GREATER AP", "elev": 1595.0, "ghcn": "USW00004725"}, "id": "USH00300687"}, {"geometry": {"type": "Point", "coordinates": [-72.3067, 40.9464]}, "type": "Feature", "properties": {"state": "NY", "hcn": "USH00300889", "name": "BRIDGEHAMPTON", "elev": 60.0, "ghcn": "USC00300889"}, "id": "USH00300889"}, {"geometry": {"type": "Point", "coordinates": [-77.9333, 43.2]}, "type": "Feature", "properties": {"state": "NY", "hcn": "USH00300937", "name": "BROCKPORT", "elev": 535.0, "ghcn": "USC00300937"}, "id": "USH00300937"}, {"geometry": {"type": "Point", "coordinates": [-78.7358, 42.9408]}, "type": "Feature", "properties": {"state": "NY", "hcn": "USH00301012", "name": "BUFFALO NIAGARA INTL", "elev": 705.0, "ghcn": "USW00014733"}, "id": "USH00301012"}, {"geometry": {"type": "Point", "coordinates": [-75.1097, 44.5772]}, "type": "Feature", "properties": {"state": "NY", "hcn": "USH00301185", "name": "CANTON 4 SE", "elev": 448.0, "ghcn": "USW00014743"}, "id": "USH00301185"}, {"geometry": {"type": "Point", "coordinates": [-73.3953, 44.8786]}, "type": "Feature", "properties": {"state": "NY", "hcn": "USH00301401", "name": "CHAZY", "elev": 157.0, "ghcn": "USC00301401"}, "id": "USH00301401"}, {"geometry": {"type": "Point", "coordinates": [-74.9267, 42.7167]}, "type": "Feature", "properties": {"state": "NY", "hcn": "USH00301752", "name": "COOPERSTOWN", "elev": 1257.0, "ghcn": "USC00301752"}, "id": "USH00301752"}, {"geometry": {"type": "Point", "coordinates": [-76.1833, 42.6]}, "type": "Feature", "properties": {"state": "NY", "hcn": "USH00301799", "name": "CORTLAND", "elev": 1129.0, "ghcn": "USC00301799"}, "id": "USH00301799"}, {"geometry": {"type": "Point", "coordinates": [-73.7206, 44.7192]}, "type": "Feature", "properties": {"state": "NY", "hcn": "USH00301966", "name": "DANNEMORA", "elev": 1340.0, "ghcn": "USC00301966"}, "id": "USH00301966"}, {"geometry": {"type": "Point", "coordinates": [-77.7175, 42.5656]}, "type": "Feature", "properties": {"state": "NY", "hcn": "USH00301974", "name": "DANSVILLE", "elev": 660.0, "ghcn": "USC00301974"}, "id": "USH00301974"}, {"geometry": {"type": "Point", "coordinates": [-75.4264, 42.0628]}, "type": "Feature", "properties": {"state": "NY", "hcn": "USH00302060", "name": "DEPOSIT", "elev": 1000.0, "ghcn": "USC00302060"}, "id": "USH00302060"}, {"geometry": {"type": "Point", "coordinates": [-73.8344, 41.0072]}, "type": "Feature", "properties": {"state": "NY", "hcn": "USH00302129", "name": "DOBBS FERRY ARDSLEY", "elev": 200.0, "ghcn": "USC00302129"}, "id": "USH00302129"}, {"geometry": {"type": "Point", "coordinates": [-76.8358, 42.0997]}, "type": "Feature", "properties": {"state": "NY", "hcn": "USH00302610", "name": "ELMIRA", "elev": 947.0, "ghcn": "USC00302610"}, "id": "USH00302610"}, {"geometry": {"type": "Point", "coordinates": [-79.312, 42.4497]}, "type": "Feature", "properties": {"state": "NY", "hcn": "USH00303033", "name": "FREDONIA", "elev": 760.0, "ghcn": "USC00303033"}, "id": "USH00303033"}, {"geometry": {"type": "Point", "coordinates": [-77.0308, 42.8767]}, "type": "Feature", "properties": {"state": "NY", "hcn": "USH00303184", "name": "GENEVA RSCH FARM", "elev": 718.0, "ghcn": "USC00303184"}, "id": "USH00303184"}, {"geometry": {"type": "Point", "coordinates": [-73.9333, 41.5167]}, "type": "Feature", "properties": {"state": "NY", "hcn": "USH00303259", "name": "GLENHAM", "elev": 275.0, "ghcn": "USC00303259"}, "id": "USH00303259"}, {"geometry": {"type": "Point", "coordinates": [-74.3592, 43.0492]}, "type": "Feature", "properties": {"state": "NY", "hcn": "USH00303319", "name": "GLOVERSVILLE", "elev": 810.0, "ghcn": "USC00303319"}, "id": "USH00303319"}, {"geometry": {"type": "Point", "coordinates": [-77.6083, 42.7747]}, "type": "Feature", "properties": {"state": "NY", "hcn": "USH00303773", "name": "HEMLOCK", "elev": 902.0, "ghcn": "USC00303773"}, "id": "USH00303773"}, {"geometry": {"type": "Point", "coordinates": [-74.2692, 43.755]}, "type": "Feature", "properties": {"state": "NY", "hcn": "USH00304102", "name": "INDIAN LAKE 2SW", "elev": 1660.0, "ghcn": "USC00304102"}, "id": "USH00304102"}, {"geometry": {"type": "Point", "coordinates": [-76.4489, 42.4489]}, "type": "Feature", "properties": {"state": "NY", "hcn": "USH00304174", "name": "ITHACA CORNELL UNIV", "elev": 960.0, "ghcn": "USC00304174"}, "id": "USH00304174"}, {"geometry": {"type": "Point", "coordinates": [-73.9847, 44.2444]}, "type": "Feature", "properties": {"state": "NY", "hcn": "USH00304555", "name": "LAKE PLACID 2 S", "elev": 1940.0, "ghcn": "USC00304555"}, "id": "USH00304555"}, {"geometry": {"type": "Point", "coordinates": [-74.6692, 44.7583]}, "type": "Feature", "properties": {"state": "NY", "hcn": "USH00304647", "name": "LAWRENCEVILLE 3 SW", "elev": 466.0, "ghcn": "USC00304647"}, "id": "USH00304647"}, {"geometry": {"type": "Point", "coordinates": [-74.8686, 43.0603]}, "type": "Feature", "properties": {"state": "NY", "hcn": "USH00304791", "name": "LITTLE FALLS CITY RSVR", "elev": 900.0, "ghcn": "USC00304791"}, "id": "USH00304791"}, {"geometry": {"type": "Point", "coordinates": [-74.8667, 43.0333]}, "type": "Feature", "properties": {"state": "NY", "hcn": "USH00304796", "name": "LITTLE FALLS MILL ST", "elev": 360.0, "ghcn": "USC00304796"}, "id": "USH00304796"}, {"geometry": {"type": "Point", "coordinates": [-78.6814, 43.1392]}, "type": "Feature", "properties": {"state": "NY", "hcn": "USH00304844", "name": "LOCKPORT 3 S", "elev": 605.0, "ghcn": "USC00304844"}, "id": "USH00304844"}, {"geometry": {"type": "Point", "coordinates": [-75.4817, 43.7975]}, "type": "Feature", "properties": {"state": "NY", "hcn": "USH00304912", "name": "LOWVILLE", "elev": 860.0, "ghcn": "USC00304912"}, "id": "USH00304912"}, {"geometry": {"type": "Point", "coordinates": [-74.3081, 44.8419]}, "type": "Feature", "properties": {"state": "NY", "hcn": "USH00304996", "name": "MALONE", "elev": 880.0, "ghcn": "USC00304996"}, "id": "USH00304996"}, {"geometry": {"type": "Point", "coordinates": [-75.0106, 42.4694]}, "type": "Feature", "properties": {"state": "NY", "hcn": "USH00305113", "name": "MARYLAND 9 SW", "elev": 1225.0, "ghcn": "USC00305113"}, "id": "USH00305113"}, {"geometry": {"type": "Point", "coordinates": [-74.155, 41.7681]}, "type": "Feature", "properties": {"state": "NY", "hcn": "USH00305426", "name": "MOHONK LAKE", "elev": 1245.0, "ghcn": "USC00305426"}, "id": "USH00305426"}, {"geometry": {"type": "Point", "coordinates": [-75.7264, 42.8417]}, "type": "Feature", "properties": {"state": "NY", "hcn": "USH00305512", "name": "MORRISVILLE 6 SW", "elev": 1300.0, "ghcn": "USC00305512"}, "id": "USH00305512"}, {"geometry": {"type": "Point", "coordinates": [-73.9692, 40.7789]}, "type": "Feature", "properties": {"state": "NY", "hcn": "USH00305801", "name": "NY CITY CNTRL PARK", "elev": 130.0, "ghcn": "USW00094728"}, "id": "USH00305801"}, {"geometry": {"type": "Point", "coordinates": [-75.5197, 42.5117]}, "type": "Feature", "properties": {"state": "NY", "hcn": "USH00306085", "name": "NORWICH", "elev": 989.0, "ghcn": "USC00306085"}, "id": "USH00306085"}, {"geometry": {"type": "Point", "coordinates": [-75.4442, 44.7281]}, "type": "Feature", "properties": {"state": "NY", "hcn": "USH00306164", "name": "OGDENSBURG 4 NE", "elev": 280.0, "ghcn": "USC00306164"}, "id": "USH00306164"}, {"geometry": {"type": "Point", "coordinates": [-76.4933, 43.4622]}, "type": "Feature", "properties": {"state": "NY", "hcn": "USH00306314", "name": "OSWEGO EAST", "elev": 350.0, "ghcn": "USC00306314"}, "id": "USH00306314"}, {"geometry": {"type": "Point", "coordinates": [-74.6847, 41.38]}, "type": "Feature", "properties": {"state": "NY", "hcn": "USH00306774", "name": "PORT JERVIS", "elev": 470.0, "ghcn": "USC00306774"}, "id": "USH00306774"}, {"geometry": {"type": "Point", "coordinates": [-73.91, 41.5997]}, "type": "Feature", "properties": {"state": "NY", "hcn": "USH00306820", "name": "POUGHKEEPSIE", "elev": 170.0, "ghcn": "USc00306820"}, "id": "USH00306820"}, {"geometry": {"type": "Point", "coordinates": [-77.6767, 43.1167]}, "type": "Feature", "properties": {"state": "NY", "hcn": "USH00307167", "name": "ROCHESTER INTL AP", "elev": 533.0, "ghcn": "USW00014768"}, "id": "USH00307167"}, {"geometry": {"type": "Point", "coordinates": [-73.8167, 43.0331]}, "type": "Feature", "properties": {"state": "NY", "hcn": "USH00307484", "name": "SARATOGA SPRINGS 4 SW", "elev": 310.0, "ghcn": "USC00307484"}, "id": "USH00307484"}, {"geometry": {"type": "Point", "coordinates": [-73.1047, 40.9586]}, "type": "Feature", "properties": {"state": "NY", "hcn": "USH00307633", "name": "SETAUKET STRONG", "elev": 40.0, "ghcn": "USC00307633"}, "id": "USH00307633"}, {"geometry": {"type": "Point", "coordinates": [-73.8325, 42.6925]}, "type": "Feature", "properties": {"state": "NY", "hcn": "USH00308248", "name": "STILLWATER RSVR", "elev": 1690.0, "ghcn": "USC00308248"}, "id": "USH00308248"}, {"geometry": {"type": "Point", "coordinates": [-76.1033, 43.1092]}, "type": "Feature", "properties": {"state": "NY", "hcn": "USH00308383", "name": "SYRACUSE WSO AP", "elev": 410.0, "ghcn": "USW00014771"}, "id": "USH00308383"}, {"geometry": {"type": "Point", "coordinates": [-73.6831, 42.75]}, "type": "Feature", "properties": {"state": "NY", "hcn": "USH00308600", "name": "TROY L&D", "elev": 24.0, "ghcn": "USC00308600"}, "id": "USH00308600"}, {"geometry": {"type": "Point", "coordinates": [-74.4383, 44.2308]}, "type": "Feature", "properties": {"state": "NY", "hcn": "USH00308631", "name": "TUPPER LAKE SUNMOUNT", "elev": 1680.0, "ghcn": "USC00308631"}, "id": "USH00308631"}, {"geometry": {"type": "Point", "coordinates": [-75.3839, 43.145]}, "type": "Feature", "properties": {"state": "NY", "hcn": "USH00308737", "name": "UTICA FAA AP", "elev": 711.0, "ghcn": "USW00094794"}, "id": "USH00308737"}, {"geometry": {"type": "Point", "coordinates": [-74.1628, 41.5514]}, "type": "Feature", "properties": {"state": "NY", "hcn": "USH00308906", "name": "WALDEN 1 ESE", "elev": 380.0, "ghcn": "USC00308906"}, "id": "USH00308906"}, {"geometry": {"type": "Point", "coordinates": [-78.51, 42.7411]}, "type": "Feature", "properties": {"state": "NY", "hcn": "USH00308910", "name": "WALES", "elev": 1090.0, "ghcn": "USC00308910"}, "id": "USH00308910"}, {"geometry": {"type": "Point", "coordinates": [-74.9003, 44.1481]}, "type": "Feature", "properties": {"state": "NY", "hcn": "USH00308944", "name": "WANAKENA RNGR SCHOOL", "elev": 1510.0, "ghcn": "USC00308944"}, "id": "USH00308944"}, {"geometry": {"type": "Point", "coordinates": [-75.8753, 43.9761]}, "type": "Feature", "properties": {"state": "NY", "hcn": "USH00309000", "name": "WATERTOWN", "elev": 497.0, "ghcn": "USC00309000"}, "id": "USH00309000"}, {"geometry": {"type": "Point", "coordinates": [-73.9608, 41.3906]}, "type": "Feature", "properties": {"state": "NY", "hcn": "USH00309292", "name": "WEST POINT", "elev": 320.0, "ghcn": "USC00309292"}, "id": "USH00309292"}, {"geometry": {"type": "Point", "coordinates": [-73.7975, 41.2664]}, "type": "Feature", "properties": {"state": "NY", "hcn": "USH00309670", "name": "YORKTOWN HEIGHTS 1 W", "elev": 670.0, "ghcn": "USC00309670"}, "id": "USH00309670"}]}
